{"type": "FeatureCollection", "features": [{"type": "Feature", "geometry": {"type": "Point", "coordinates": [-1.996288, 48.659336]}, "properties": {"type": "accommodation", "content": "Les Charmettes", "name": "Les Charmettes"}}, {"type": "Feature", "geometry": {"type": "Point", "coordinates": [-1.511376, 48.635956]}, "properties": {"type": "landmark", "content": "Mont Saint-Michel", "name": "Mont Saint-Michel"}}, {"type": "Feature", "geometry": {"type": "Point", "coordinates": [-1.244966, 49.30285]}, "properties": {"type": "accommodation", "content": "Hotel Restaurant L'escapade", "name": "Hotel Restaurant L'escapade"}}, {"type": "Feature", "geometry": {"type": "Point", "coordinates": [-0.857995, 49.360259]}, "properties": {"type": "landmark", "content": "Normandy American Cemetery", "name": "Normandy American Cemetery"}}, {"type": "Feature", "geometry": {"type": "Point", "coordinates": [-1.026569, 49.341898]}, "properties": {"type": "landmark", "content": "Cimeti\u00e8re militaire Allemand de La Cambe", "name": "Cimeti\u00e8re militaire Allemand de La Cambe"}}, {"type": "Feature", "geometry": {"type": "Point", "coordinates": [-1.174641, 49.415338]}, "properties": {"type": "landmark", "content": "Utah Beach Landing Museum", "name": "Utah Beach Landing Museum"}}, {"type": "Feature", "geometry": {"type": "Point", "coordinates": [-0.989475, 49.397898]}, "properties": {"type": "landmark", "content": "The Pointe Du Hoc", "name": "The Pointe Du Hoc"}}, {"type": "Feature", "geometry": {"type": "Point", "coordinates": [-0.620319, 49.340173]}, "properties": {"type": "landmark", "content": "Mus\u00e9e du D\u00e9barquement", "name": "Mus\u00e9e du D\u00e9barquement"}}, {"type": "Feature", "geometry": {"type": "Point", "coordinates": [-1.31515, 49.408451]}, "properties": {"type": "landmark", "content": "Airborne Museum", "name": "Airborne Museum"}}, {"type": "Feature", "geometry": {"type": "Point", "coordinates": [-0.882236, 49.366781]}, "properties": {"type": "landmark", "content": "Memorial Museum of Omaha Beach", "name": "Memorial Museum of Omaha Beach"}}, {"type": "Feature", "geometry": {"type": "Point", "coordinates": [-0.694867, 49.343237]}, "properties": {"type": "landmark", "content": "Longues-sur-Mer Battery", "name": "Longues-sur-Mer Battery"}}]}