{"type": "FeatureCollection", "features": [{"type": "Feature", "geometry": {"type": "Point", "coordinates": [-6.183856, 57.507155]}, "properties": {"type": "hike", "content": "<b>Old Man of Storr<b><br /><a href=\"#old-man-of-storr\">more\u2026</a>", "name": "Old Man of Storr"}}, {"type": "Feature", "geometry": {"type": "Point", "coordinates": [-5.586077, 57.285965]}, "properties": {"type": "accommodation", "content": "<b>Tarracliffe Bed and Breakfast<b><br /><a href=\"#where-did-we-stay\">more\u2026</a>", "name": "Tarracliffe Bed and Breakfast"}}, {"type": "Feature", "geometry": {"type": "Point", "coordinates": [-5.516016, 57.27393]}, "properties": {"type": "landmark", "content": "<b>Eilean Donan Castle<b><br /><a href=\"#eilean-donan-castle\">more\u2026</a>", "name": "Eilean Donan Castle"}}, {"type": "Feature", "geometry": {"type": "Point", "coordinates": [-6.273347, 57.641331]}, "properties": {"type": "hike", "content": "<b>Quiraing<b><br /><a href=\"#the-quiraing-walk\">more\u2026</a>", "name": "Quiraing"}}, {"type": "Feature", "geometry": {"type": "Point", "coordinates": [-6.788275, 57.42346]}, "properties": {"type": "landmark", "content": "<b>Neist Point Lighthouse<b><br /><a href=\"#neist-point-lighthouse\">more\u2026</a>", "name": "Neist Point Lighthouse"}}, {"type": "Feature", "geometry": {"type": "Point", "coordinates": [-6.258295, 57.250339]}, "properties": {"type": "hike", "content": "<b>Fairy Pools<b><br /><a href=\"#fairy-pools\">more\u2026</a>", "name": "Fairy Pools"}}, {"type": "Feature", "geometry": {"type": "Point", "coordinates": [-5.815972, 57.432717]}, "properties": {"type": "restaurant", "content": "<b>Applecross Inn<b><br /><a href=\"#applecross\">more\u2026</a>", "name": "Applecross Inn"}}, {"type": "Feature", "geometry": {"type": "Point", "coordinates": [-6.175464, 57.2902]}, "properties": {"type": "restaurant", "content": "<b>Seumas' Bar<b><br /><a href=\"#what-did-we-eat\">more\u2026</a>", "name": "Seumas' Bar"}}, {"type": "Feature", "geometry": {"type": "Point", "coordinates": [-6.177875, 57.612226]}, "properties": {"type": "landmark", "content": "<b>Staffin Dinosaur Museum<b><br /><a href=\"#robert-loves\">more...</a>", "name": "Staffin Dinosaur Museum"}}]}