{"type": "FeatureCollection", "features": [{"type": "Feature", "geometry": {"type": "Point", "coordinates": [-6.183856, 57.507155]}, "properties": {"type": "hike", "content": "Old Man of Storr", "name": "Old Man of Storr"}}, {"type": "Feature", "geometry": {"type": "Point", "coordinates": [-5.586077, 57.285965]}, "properties": {"type": "accommodation", "content": "Tarracliffe Bed and Breakfast", "name": "Tarracliffe Bed and Breakfast"}}, {"type": "Feature", "geometry": {"type": "Point", "coordinates": [-5.516016, 57.27393]}, "properties": {"type": "landmark", "content": "Eilean Donan Castle", "name": "Eilean Donan Castle"}}, {"type": "Feature", "geometry": {"type": "Point", "coordinates": [-6.273347, 57.641331]}, "properties": {"type": "hike", "content": "Quiraing", "name": "Quiraing"}}, {"type": "Feature", "geometry": {"type": "Point", "coordinates": [-6.788275, 57.42346]}, "properties": {"type": "landmark", "content": "Neist Point Lighthouse", "name": "Neist Point Lighthouse"}}, {"type": "Feature", "geometry": {"type": "Point", "coordinates": [-6.258295, 57.250339]}, "properties": {"type": "hike", "content": "Fairy Pools", "name": "Fairy Pools"}}, {"type": "Feature", "geometry": {"type": "Point", "coordinates": [-5.815972, 57.432717]}, "properties": {"type": "restaurant", "content": "Applecross Inn", "name": "Applecross Inn"}}, {"type": "Feature", "geometry": {"type": "Point", "coordinates": [-6.175464, 57.2902]}, "properties": {"type": "restaurant", "content": "Seumas' Bar", "name": "Seumas' Bar"}}, {"type": "Feature", "geometry": {"type": "Point", "coordinates": [-6.177875, 57.612226]}, "properties": {"type": "landmark", "content": "Staffin Dinosaur Museum", "name": "Staffin Dinosaur Museum"}}]}