{"type": "FeatureCollection", "features": [{"type": "Feature", "geometry": {"type": "Point", "coordinates": [139.703543, 35.695489]}, "properties": {"type": "landmark", "content": "Samurai Museum", "name": "Samurai Museum"}}, {"type": "Feature", "geometry": {"type": "Point", "coordinates": [139.709751, 35.685259]}, "properties": {"type": "tree", "content": "Shinjuku Gyoen Gardens", "name": "Shinjuku Gyoen Gardens"}}, {"type": "Feature", "geometry": {"type": "Point", "coordinates": [139.6995, 35.693]}, "properties": {"type": "bar", "content": "Memory Lane", "name": "Memory Lane"}}, {"type": "Feature", "geometry": {"type": "Point", "coordinates": [139.700543, 35.659458]}, "properties": {"type": "landmark", "content": "Shibuya Crossing", "name": "Shibuya Crossing"}}, {"type": "Feature", "geometry": {"type": "Point", "coordinates": [139.70055, 35.689554]}, "properties": {"type": "transport", "content": "Shinjuku Station", "name": "Shinjuku Station"}}]}