{"type": "FeatureCollection", "features": [{"type": "Feature", "geometry": {"type": "Point", "coordinates": [139.703543, 35.695489]}, "properties": {"type": "landmark", "content": "<b>Samurai Museum<b><br /><a href=\"#samurai-museum\">more\u2026</a>", "name": "Samurai Museum"}}, {"type": "Feature", "geometry": {"type": "Point", "coordinates": [139.709751, 35.685259]}, "properties": {"type": "tree", "content": "<b>Shinjuku Gyoen Gardens<b><br /><a href=\"#shinjuku-gyoen-gardens\">more\u2026</a>", "name": "Shinjuku Gyoen Gardens"}}, {"type": "Feature", "geometry": {"type": "Point", "coordinates": [139.6995, 35.693]}, "properties": {"type": "bar", "content": "<b>Memory Lane<b><br /><a href=\"#memory-lane\">more\u2026</a>", "name": "Memory Lane"}}, {"type": "Feature", "geometry": {"type": "Point", "coordinates": [139.700543, 35.659458]}, "properties": {"type": "landmark", "content": "<b>Shibuya Crossing<b><br /><a href=\"#shibuya-crossing\">more\u2026</a>", "name": "Shibuya Crossing"}}, {"type": "Feature", "geometry": {"type": "Point", "coordinates": [139.70055, 35.689554]}, "properties": {"type": "transport", "content": "Shinjuku Station", "name": "Shinjuku Station"}}]}