{"type": "FeatureCollection", "features": [{"type": "Feature", "geometry": {"type": "Point", "coordinates": [139.773269, 35.703407]}, "properties": {"type": "accommodation", "content": "Super Hotel Akihabara Suehirocho", "name": "Super Hotel Akihabara Suehirocho"}}, {"type": "Feature", "geometry": {"type": "Point", "coordinates": [139.774761, 35.700826]}, "properties": {"type": "entertainment", "content": "<b>Owl Cafe: Akiba Fukurou<b><br /><a href=\"#akiba-fukurou\">more\u2026</a>", "name": "Owl Cafe: Akiba Fukurou"}}, {"type": "Feature", "geometry": {"type": "Point", "coordinates": [139.770862, 35.699419]}, "properties": {"type": "entertainment", "content": "<b>At Home<b><br /><a href=\"#princesses--pokemon\">more\u2026</a>", "name": "At Home"}}, {"type": "Feature", "geometry": {"type": "Point", "coordinates": [139.770534, 35.70035]}, "properties": {"type": "shop", "content": "<b>Mandarake<b><br /><a href=\"#otuku-culture\">more\u2026</a>", "name": "Mandarake"}}, {"type": "Feature", "geometry": {"type": "Point", "coordinates": [139.774646, 35.698938]}, "properties": {"type": "shop", "content": "<b>Yodobashi Camera<b><br /><a href=\"#otuku-culture\">more\u2026</a>", "name": "Yodobashi Camera"}}]}