{"type": "FeatureCollection", "features": [{"type": "Feature", "geometry": {"type": "Point", "coordinates": [139.773269, 35.703407]}, "properties": {"type": "accommodation", "content": "Super Hotel Akihabara Suehirocho", "name": "Super Hotel Akihabara Suehirocho"}}, {"type": "Feature", "geometry": {"type": "Point", "coordinates": [139.774761, 35.700826]}, "properties": {"type": "entertainment", "content": "Owl Cafe: Akiba Fukurou", "name": "Owl Cafe: Akiba Fukurou"}}, {"type": "Feature", "geometry": {"type": "Point", "coordinates": [139.770862, 35.699419]}, "properties": {"type": "entertainment", "content": "At Home", "name": "At Home"}}, {"type": "Feature", "geometry": {"type": "Point", "coordinates": [139.770534, 35.70035]}, "properties": {"type": "shop", "content": "Mandarake", "name": "Mandarake"}}, {"type": "Feature", "geometry": {"type": "Point", "coordinates": [139.774646, 35.698938]}, "properties": {"type": "shop", "content": "Yodobashi Camera", "name": "Yodobashi Camera"}}]}