{"type": "FeatureCollection", "features": [{"type": "Feature", "geometry": {"type": "Point", "coordinates": [14.375208, 40.622351]}, "properties": {"type": "accommodation", "content": "Hotel Leone", "name": "Hotel Leone"}}, {"type": "Feature", "geometry": {"type": "Point", "coordinates": [14.36564, 40.627539]}, "properties": {"type": "landmark", "content": "Spiaggia di Sorrento", "name": "Spiaggia di Sorrento"}}, {"type": "Feature", "geometry": {"type": "Point", "coordinates": [14.373625, 40.628059]}, "properties": {"type": "tree", "content": "Villa Comunale", "name": "Villa Comunale"}}, {"type": "Feature", "geometry": {"type": "Point", "coordinates": [14.376361, 40.625183]}, "properties": {"type": "tree", "content": "Vallone dei Mulini", "name": "Vallone dei Mulini"}}, {"type": "Feature", "geometry": {"type": "Point", "coordinates": [14.379748, 40.625829]}, "properties": {"type": "transport", "content": "Sorrento", "name": "Sorrento"}}, {"type": "Feature", "geometry": {"type": "Point", "coordinates": [14.381104, 40.626616]}, "properties": {"type": "restaurant", "content": "Pizzeria da Franco", "name": "Pizzeria da Franco"}}, {"type": "Feature", "geometry": {"type": "Point", "coordinates": [14.375718, 40.626431]}, "properties": {"type": "bar", "content": "Syrenuse", "name": "Syrenuse"}}, {"type": "Feature", "geometry": {"type": "Point", "coordinates": [14.370705, 40.625423]}, "properties": {"type": "bar", "content": "Fuoro 51", "name": "Fuoro 51"}}, {"type": "Feature", "geometry": {"type": "Point", "coordinates": [14.371719, 40.625067]}, "properties": {"type": "restaurant", "content": "o Parrucchiano La Favorita", "name": "o Parrucchiano La Favorita"}}, {"type": "Feature", "geometry": {"type": "Point", "coordinates": [14.381088, 40.626982]}, "properties": {"type": "tree", "content": "Lemon grove", "name": "Lemon grove"}}]}