{"type": "FeatureCollection", "features": [{"type": "Feature", "geometry": {"type": "Point", "coordinates": [-6.215699, 57.27025]}, "properties": {"name": "Isle of Skye", "num_visits": 1}}, {"type": "Feature", "geometry": {"type": "Point", "coordinates": [-3.188518, 55.954069]}, "properties": {"name": "Edinburgh", "num_visits": 1}}, {"type": "Feature", "geometry": {"type": "Point", "coordinates": [-4.076556, 53.068425]}, "properties": {"name": "Snowdon", "num_visits": 1}}, {"type": "Feature", "geometry": {"type": "Point", "coordinates": [-3.211647, 54.45419]}, "properties": {"name": "Scafell Pike", "num_visits": 1}}, {"type": "Feature", "geometry": {"type": "Point", "coordinates": [-5.003627, 56.796845]}, "properties": {"name": "Ben Nevis", "num_visits": 1}}, {"type": "Feature", "geometry": {"type": "Point", "coordinates": [0.127489, 51.246229]}, "properties": {"name": "Ide Hill", "num_visits": 1}}, {"type": "Feature", "geometry": {"type": "Point", "coordinates": [-3.669112, 57.070353]}, "properties": {"name": "Cairngorms", "num_visits": 1}}]}